[
 {"name":"Depo Jaya Bangunan Lombok","lat":-8.59466,"lng":116.143857,"rating":4.3,"reviews":764,"phone":"(0370) 673456","group_key":"suppliers_materials","category_keys":["building_materials_store","sand_supplier","gravel_supplier","aggregate_supplier","earth_fill_supplier","topsoil_supplier"]},
 {"name":"PT Kokoh Mandiri Sejahtera","lat":-8.5980634,"lng":116.1292383,"rating":4.2,"reviews":522,"phone":"0819-0788-8877","group_key":"suppliers_materials","category_keys":["building_materials_store","sand_supplier","gravel_supplier","aggregate_supplier","earth_fill_supplier","topsoil_supplier"]},
 {"name":"CV. Surya Jaya Mandiri Putra","lat":-8.5949411,"lng":116.1358517,"rating":4.7,"reviews":84,"phone":"(0370) 641116","group_key":"suppliers_materials","category_keys":["building_materials_store","sand_supplier","gravel_supplier","aggregate_supplier","earth_fill_supplier"]},
 {"name":"Plaza Bangunan Lombok Timur","lat":-8.6344749,"lng":116.4370215,"rating":4,"reviews":153,"phone":"0817-7688-9989","group_key":"suppliers_materials","category_keys":["building_materials_store","sand_supplier","gravel_supplier","aggregate_supplier","earth_fill_supplier"]},
 {"name":"Pos Bangunan","lat":-8.6468723,"lng":116.5326003,"rating":4.2,"reviews":133,"phone":"0853-3767-3838","group_key":"suppliers_materials","category_keys":["building_materials_store","sand_supplier","gravel_supplier","aggregate_supplier","earth_fill_supplier","topsoil_supplier"]}
]
