[{"name":"ONZ Custom cabinet & Kitchen Set","gmaps_type":"Furniture maker","address":"","phone":"0821-4343-0035","website":"","lat":-8.6637272,"lng":115.187043,"rating":4.8,"reviews":18,"group_key":"builders_trades","category_keys":["furniture_joinery"],"gmaps_url":"https://www.google.com/maps/search/?api=1&query=-8.6637272,115.187043"},{"name":"Produsen Custom Sofa, Lemari, Kitchen Set - Lombok Furnitur","gmaps_type":"Furniture maker","address":"","phone":"0851-5991-9535","website":"","lat":-8.6147909,"lng":116.0890822,"rating":5,"reviews":1,"group_key":"builders_trades","category_keys":["furniture_joinery"],"gmaps_url":"https://www.google.com/maps/search/?api=1&query=-8.6147909,116.0890822"},{"name":"Qiu Interior","gmaps_type":"Interior architect office","address":"","phone":"0819-0727-9111","website":"","lat":-8.5841619,"lng":116.103861,"rating":5,"reviews":205,"group_key":"builders_trades","category_keys":["furniture_joinery"],"gmaps_url":"https://www.google.com/maps/search/?api=1&query=-8.5841619,116.103861"},{"name":"Jasa Arsitek Dan Kontraktor & Interior Lombok (Praya)","gmaps_type":"Architect","address":"","phone":"0857-8030-0765","website":"","lat":-8.7901328,"lng":116.1705761,"rating":5,"reviews":3,"group_key":"builders_trades","category_keys":["general_contractor"],"gmaps_url":"https://www.google.com/maps/search/?api=1&query=-8.7901328,116.1705761"},{"name":"Central Meubel","gmaps_type":"Furniture store","address":"","phone":"0819-0738-4454","website":"","lat":-8.5946745,"lng":116.1062307,"rating":4.4,"reviews":60,"group_key":"builders_trades","category_keys":["furniture_joinery"],"gmaps_url":"https://www.google.com/maps/search/?api=1&query=-8.5946745,116.1062307"},{"name":"Denpasar Toko Mebel Mataram","gmaps_type":"Furniture store","address":"","phone":"0819-0701-0919","website":"","lat":-8.5940474,"lng":116.1264489,"rating":4.7,"reviews":48,"group_key":"builders_trades","category_keys":["furniture_joinery"],"gmaps_url":"https://www.google.com/maps/search/?api=1&query=-8.5940474,116.1264489"},{"name":"Mebel Kekalik Jaya","gmaps_type":"Furniture store","address":"","phone":"0878-6516-1861","website":"","lat":-8.5899217,"lng":116.0847856,"rating":4.8,"reviews":18,"group_key":"builders_trades","category_keys":["furniture_joinery"],"gmaps_url":"https://www.google.com/maps/search/?api=1&query=-8.5899217,116.0847856"},{"name":"Griya Project Lombok","gmaps_type":"Furniture store","address":"","phone":"0878-6589-5559","website":"","lat":-8.564242,"lng":116.0971837,"rating":4.9,"reviews":81,"group_key":"builders_trades","category_keys":["furniture_joinery"],"gmaps_url":"https://www.google.com/maps/search/?api=1&query=-8.564242,116.0971837"},{"name":"Mitra Meubel","gmaps_type":"Furniture store","address":"","phone":"0878-6555-6662","website":"","lat":-8.6876518,"lng":116.121738,"rating":4.5,"reviews":19,"group_key":"builders_trades","category_keys":["furniture_joinery"],"gmaps_url":"https://www.google.com/maps/search/?api=1&query=-8.6876518,116.121738"},{"name":"Sinar. UD (Mebel)","gmaps_type":"Furniture store","address":"","phone":"0818-0576-5165","website":"","lat":-8.5957498,"lng":116.4079435,"rating":4.8,"reviews":39,"group_key":"builders_trades","category_keys":["furniture_joinery"],"gmaps_url":"https://www.google.com/maps/search/?api=1&query=-8.5957498,116.4079435"},{"name":"Meubel Bintaro Jaya","gmaps_type":"Furniture store","address":"","phone":"0818-0526-3222","website":"","lat":-8.5596567,"lng":116.0748563,"rating":4.7,"reviews":23,"group_key":"builders_trades","category_keys":["furniture_joinery"],"gmaps_url":"https://www.google.com/maps/search/?api=1&query=-8.5596567,116.0748563"},{"name":"Kharisma Furniture and Office 3","gmaps_type":"Furniture store","address":"","phone":"0818-0909-0750","website":"","lat":-8.562771,"lng":116.115206,"rating":4.5,"reviews":20,"group_key":"builders_trades","category_keys":["furniture_joinery"],"gmaps_url":"https://www.google.com/maps/search/?api=1&query=-8.562771,116.115206"},{"name":"Toko Kasur, Lemari Besi Lombok (Indah Plus Mebel)","gmaps_type":"Millwork shop","address":"","phone":"0819-1600-9600","website":"","lat":-8.5848599,"lng":116.077147,"rating":4.8,"reviews":43,"group_key":"builders_trades","category_keys":["furniture_joinery"],"gmaps_url":"https://www.google.com/maps/search/?api=1&query=-8.5848599,116.077147"},{"name":"Toko NUSA MUDA KLU (Mebel dan Elektronik)","gmaps_type":"Millwork shop","address":"","phone":"0819-1960-6111","website":"","lat":-8.4053376,"lng":116.1031511,"rating":4.9,"reviews":20,"group_key":"builders_trades","category_keys":["furniture_joinery"],"gmaps_url":"https://www.google.com/maps/search/?api=1&query=-8.4053376,116.1031511"},{"name":"Mataram Meubel","gmaps_type":"Furniture store","address":"","phone":"(0370) 624390","website":"","lat":-8.5581927,"lng":116.0749141,"rating":4.3,"reviews":3,"group_key":"builders_trades","category_keys":["furniture_joinery"],"gmaps_url":"https://www.google.com/maps/search/?api=1&query=-8.5581927,116.0749141"},{"name":"Mebel Murah Hati Praya","gmaps_type":"Furniture store","address":"","phone":"0823-4029-9896","website":"","lat":-8.7030828,"lng":116.2614478,"rating":4.5,"reviews":40,"group_key":"builders_trades","category_keys":["furniture_joinery"],"gmaps_url":"https://www.google.com/maps/search/?api=1&query=-8.7030828,116.2614478"},{"name":"Mebel Shofiya","gmaps_type":"Furniture store","address":"","phone":"0819-0755-1666","website":"","lat":-8.6429774,"lng":116.5230863,"rating":4.3,"reviews":19,"group_key":"builders_trades","category_keys":["furniture_joinery"],"gmaps_url":"https://www.google.com/maps/search/?api=1&query=-8.6429774,116.5230863"},{"name":"RIZQI WOOD GALLERY","gmaps_type":"Antique furniture store","address":"","phone":"0878-6442-0888","website":"","lat":-8.5487774,"lng":116.0727098,"rating":5,"reviews":88,"group_key":"builders_trades","category_keys":["furniture_joinery"],"gmaps_url":"https://www.google.com/maps/search/?api=1&query=-8.5487774,116.0727098"},{"name":"Pujut Meuble","gmaps_type":"Furniture store","address":"","phone":"0878-6526-1799","website":"","lat":-8.7828365,"lng":116.3104165,"rating":4.7,"reviews":7,"group_key":"builders_trades","category_keys":["furniture_joinery"],"gmaps_url":"https://www.google.com/maps/search/?api=1&query=-8.7828365,116.3104165"},{"name":"Kawo Meubel","gmaps_type":"Furniture store","address":"","phone":"0878-6560-8726","website":"","lat":-8.7846836,"lng":116.3099885,"rating":5,"reviews":3,"group_key":"builders_trades","category_keys":["furniture_joinery"],"gmaps_url":"https://www.google.com/maps/search/?api=1&query=-8.7846836,116.3099885"},{"name":"Moe's Furniture Shop","gmaps_type":"Furniture store","address":"","phone":"0823-3156-0484","website":"","lat":-8.8798073,"lng":116.2740177,"rating":5,"reviews":3,"group_key":"builders_trades","category_keys":["furniture_joinery"],"gmaps_url":"https://www.google.com/maps/search/?api=1&query=-8.8798073,116.2740177"},{"name":"Meubel Rahel","gmaps_type":"Furniture store","address":"","phone":"0818-0570-4922","website":"","lat":-8.6341743,"lng":116.367739,"rating":4.8,"reviews":10,"group_key":"builders_trades","category_keys":["furniture_joinery"],"gmaps_url":"https://www.google.com/maps/search/?api=1&query=-8.6341743,116.367739"},{"name":"Qiana Meubel & Furniture","gmaps_type":"Millwork shop","address":"","phone":"0819-1631-9664","website":"","lat":-8.686096,"lng":116.3252179,"rating":4.3,"reviews":7,"group_key":"builders_trades","category_keys":["furniture_joinery"],"gmaps_url":"https://www.google.com/maps/search/?api=1&query=-8.686096,116.3252179"},{"name":"BMF MEUBLER & ELECTRONIC","gmaps_type":"Furniture wholesaler","address":"","phone":"0818-0370-2625","website":"","lat":-8.6797633,"lng":116.2812519,"rating":4.8,"reviews":40,"group_key":"builders_trades","category_keys":["furniture_joinery"],"gmaps_url":"https://www.google.com/maps/search/?api=1&query=-8.6797633,116.2812519"},{"name":"Mebel Karunia","gmaps_type":"Millwork shop","address":"","phone":"0878-6508-9489","website":"","lat":-8.6931749,"lng":116.2616953,"rating":5,"reviews":3,"group_key":"builders_trades","category_keys":["furniture_joinery"],"gmaps_url":"https://www.google.com/maps/search/?api=1&query=-8.6931749,116.2616953"},{"name":"ASTANA MEUBEL","gmaps_type":"Furniture store","address":"","phone":"0877-9457-0136","website":"","lat":-8.6862788,"lng":116.2422794,"rating":5,"reviews":5,"group_key":"builders_trades","category_keys":["furniture_joinery"],"gmaps_url":"https://www.google.com/maps/search/?api=1&query=-8.6862788,116.2422794"},{"name":"TIARA Furniture","gmaps_type":"Furniture store","address":"","phone":"","website":"","lat":-8.6568709,"lng":116.3286885,"rating":4,"reviews":3,"group_key":"builders_trades","category_keys":["furniture_joinery"],"gmaps_url":"https://www.google.com/maps/search/?api=1&query=-8.6568709,116.3286885"},{"name":"Manshurin Meuble & Elektronik","gmaps_type":"Furniture store","address":"","phone":"","website":"","lat":-8.7562535,"lng":116.3441648,"rating":4.1,"reviews":11,"group_key":"builders_trades","category_keys":["furniture_joinery"],"gmaps_url":"https://www.google.com/maps/search/?api=1&query=-8.7562535,116.3441648"},{"name":"Sabara Jaya Funiture","gmaps_type":"Millwork shop","address":"","phone":"0819-1774-8671","website":"","lat":-8.4194375,"lng":116.0549375,"rating":5,"reviews":3,"group_key":"builders_trades","category_keys":["furniture_joinery"],"gmaps_url":"https://www.google.com/maps/search/?api=1&query=-8.4194375,116.0549375"},{"name":"Arifin's Workshop","gmaps_type":"Furniture store","address":"","phone":"0813-6225-3995","website":"","lat":-8.4025546,"lng":116.0817973,"rating":4.3,"reviews":3,"group_key":"builders_trades","category_keys":["furniture_joinery"],"gmaps_url":"https://www.google.com/maps/search/?api=1&query=-8.4025546,116.0817973"},{"name":"UD Sofy Mebel","gmaps_type":"Furniture maker","address":"","phone":"0819-3762-1245","website":"","lat":-8.4120577,"lng":116.0958925,"rating":5,"reviews":6,"group_key":"builders_trades","category_keys":["furniture_joinery"],"gmaps_url":"https://www.google.com/maps/search/?api=1&query=-8.4120577,116.0958925"},{"name":"Nusi Meubel, Elektronik & Laundry","gmaps_type":"Store","address":"","phone":"","website":"","lat":-8.3565629,"lng":116.1783247,"rating":5,"reviews":6,"group_key":"builders_trades","category_keys":["furniture_joinery"],"gmaps_url":"https://www.google.com/maps/search/?api=1&query=-8.3565629,116.1783247"},{"name":"Tukang Bangunan Mataram (Remodeler)","gmaps_type":"Remodeler","address":"","phone":"0878-2516-8755","website":"","lat":-8.6001087,"lng":116.0924709,"rating":4.9,"reviews":19,"group_key":"builders_trades","category_keys":["general_contractor","mason","tiler","plumber","painter"],"gmaps_url":"https://www.google.com/maps/search/?api=1&query=-8.6001087,116.0924709"},{"name":"Jasa Bangunan Lombok","gmaps_type":"Bricklayer","address":"","phone":"0819-0679-1927","website":"","lat":-8.5960563,"lng":116.0899978,"rating":4.5,"reviews":15,"group_key":"builders_trades","category_keys":["general_contractor","mason","tiler","plumber","painter"],"gmaps_url":"https://www.google.com/maps/search/?api=1&query=-8.5960563,116.0899978"},{"name":"Jasa Tukang Bangunan Mataram","gmaps_type":"Remodeler","address":"","phone":"0878-0185-4414","website":"","lat":-8.5964124,"lng":116.0905246,"rating":4.5,"reviews":12,"group_key":"builders_trades","category_keys":["general_contractor","mason","tiler","plumber","painter"],"gmaps_url":"https://www.google.com/maps/search/?api=1&query=-8.5964124,116.0905246"},{"name":"Papan Construction","gmaps_type":"Contractor","address":"","phone":"0877-5669-5565","website":"","lat":-8.6288076,"lng":116.0914629,"rating":4.8,"reviews":18,"group_key":"builders_trades","category_keys":["general_contractor","mason","tiler","plumber","painter"],"gmaps_url":"https://www.google.com/maps/search/?api=1&query=-8.6288076,116.0914629"},{"name":"MAHESA-NTB CV","gmaps_type":"Home builder","address":"","phone":"0819-9783-2205","website":"","lat":-8.5966055,"lng":116.0763375,"rating":5,"reviews":33,"group_key":"builders_trades","category_keys":["general_contractor","mason","tiler","plumber","painter"],"gmaps_url":"https://www.google.com/maps/search/?api=1&query=-8.5966055,116.0763375"},{"name":"Jasa renovasi bangunan Lombok Timur","gmaps_type":"Home builder","address":"","phone":"0877-0053-6578","website":"","lat":-8.6489057,"lng":116.5230758,"rating":5,"reviews":1,"group_key":"builders_trades","category_keys":["general_contractor","mason","tiler","plumber","painter"],"gmaps_url":"https://www.google.com/maps/search/?api=1&query=-8.6489057,116.5230758"}]